[
  {
    "url": "../../public.Pic1.jpg",
    "title": "Desert Canyon",
    "location": { "city": "East Jairo", "state": "Oklahoma" },
    "rating": 5,
    "creatorId": "619a9cf7e0a0b0f9c8a64108"
  },
  {
    "url": "../../public.Pic2.jpg",
    "title": "Desert Canyon",
    "location": { "city": "East Jairo", "state": "Oklahoma" },
    "rating": 5,
    "creatorId": "619a9cf7e0a0b0f9c8a64108"
  },
  {
    "url": "../../public.Pic3.jpg",
    "title": "Desert Canyon",
    "location": { "city": "East Jairo", "state": "Oklahoma" },
    "rating": 5,
    "creatorId": "619a9cf7e0a0b0f9c8a64108"
  },
  {
    "url": "../../public.Pic4.jpg",
    "title": "Desert Canyon",
    "location": { "city": "East Jairo", "state": "Oklahoma" },
    "rating": 5,
    "creatorId": "619a9cf7e0a0b0f9c8a64108"
  },
  {
    "url": "../../public.Pic5.jpg",
    "title": "Desert Canyon",
    "location": { "city": "East Jairo", "state": "Oklahoma" },
    "rating": 5,
    "creatorId": "619a9cf7e0a0b0f9c8a64108"
  },
  {
    "url": "../../public.Pic6.jpg",
    "title": "Desert Canyon",
    "location": { "city": "East Jairo", "state": "Oklahoma" },
    "rating": 5,
    "creatorId": "619a9cf7e0a0b0f9c8a64108"
  },
  {
    "url": "../../public.Pic7.jpg",
    "title": "Desert Canyon",
    "location": { "city": "East Jairo", "state": "Oklahoma" },
    "rating": 5,
    "creatorId": "619a9cf7e0a0b0f9c8a64108"
  },
  {
    "url": "../../public.Pic8.jpg",
    "title": "Desert Canyon",
    "location": { "city": "East Jairo", "state": "Oklahoma" },
    "rating": 5,
    "creatorId": "619a9cf7e0a0b0f9c8a64108"
  },
  {
    "url": "../../public.Pic7.jpg",
    "title": "Desert Canyon",
    "location": { "city": "East Jairo", "state": "Oklahoma" },
    "rating": 5,
    "creatorId": "619a9cf7e0a0b0f9c8a64108"
  },
  {
    "url": "../../public.Pic8.jpg",
    "title": "Desert Canyon",
    "location": { "city": "East Jairo", "state": "Oklahoma" },
    "rating": 5,
    "creatorId": "619a9cf7e0a0b0f9c8a64108"
  },
  {
    "url": "../../public.Pic7.jpg",
    "title": "Desert Canyon",
    "location": { "city": "East Jairo", "state": "Oklahoma" },
    "rating": 5,
    "creatorId": "619a9cf7e0a0b0f9c8a64108"
  },
  {
    "url": "../../public.Pic8.jpg",
    "title": "Desert Canyon",
    "location": { "city": "East Jairo", "state": "Oklahoma" },
    "rating": 5,
    "creatorId": "619a9cf7e0a0b0f9c8a64108"
  }
]
